{
"type": "FeatureCollection",
"name": "Table 6_3",
"crs": { "type": "name", "properties": { "name": "urn:ogc:def:crs:OGC:1.3:CRS84" } },
"features": [
{ "type": "Feature", "properties": { "No": 1, "Tank name": "Udamaluwa Wewa", "Ownership": "ID", "N": 7.17886, "E": 80.77713, "Remarks": "In good condition and no improvement is required.", "photopath": "https://raw.githubusercontent.com/MWS003-GIS/MWS003-GIS.github.io/main/IWWRMP/Data/EXD/200_photo/MWS_012/B (02)2.jpg" }, "geometry": { "type": "Point", "coordinates": [ 80.77713, 7.17886 ] } },
{ "type": "Feature", "properties": { "No": 2, "Tank name": "Elamullawa Wewa", "Ownership": "DAD", "N": 7.17085, "E": 80.78449, "Remarks": "Desilting and tree planting required", "photopath": "https://raw.githubusercontent.com/MWS003-GIS/MWS003-GIS.github.io/main/IWWRMP/Data/EXD/200_photo/MWS_012/K (04)8.jpg" }, "geometry": { "type": "Point", "coordinates": [ 80.78449, 7.17085 ] } },
{ "type": "Feature", "properties": { "No": 3, "Tank name": "Walugama Wewa", "Ownership": "ID ", "N": 7.15506, "E": 80.78549, "Remarks": "Desilting and tree planting required", "photopath": "https://raw.githubusercontent.com/MWS003-GIS/MWS003-GIS.github.io/main/IWWRMP/Data/EXD/200_photo/MWS_012/DK (04)4.jpg" }, "geometry": { "type": "Point", "coordinates": [ 80.78549, 7.15506 ] } },
{ "type": "Feature", "properties": { "No": 4, "Tank name": "Badaladeniya Wewa", "Ownership": "DAD", "N": 7.15944, "E": 80.79406, "Remarks": "Tree planting in forest land ", "photopath": "https://raw.githubusercontent.com/MWS003-GIS/MWS003-GIS.github.io/main/IWWRMP/Data/EXD/200_photo/MWS_012/DU (04)3.jpg " }, "geometry": { "type": "Point", "coordinates": [ 80.79406, 7.15944 ] } },
{ "type": "Feature", "properties": { "No": 5, "Tank name": "Katukenda Gommana Wewa (New tank)", "Ownership": "DAD", "N": 7.16685, "E": 80.76523, "Remarks": "Raising the well in the tank", "photopath": "https://raw.githubusercontent.com/MWS003-GIS/MWS003-GIS.github.io/main/IWWRMP/Data/EXD/200_photo/MWS_012/B (02)2.jpg" }, "geometry": { "type": "Point", "coordinates": [ 80.76523, 7.16685 ] } },
{ "type": "Feature", "properties": { "No": 6, "Tank name": "Nikaththala Wewa", "Ownership": "DAD", "N": 7.16968, "E": 80.75897, "Remarks": "Rehabilitation of the tank", "photopath": "https://raw.githubusercontent.com/MWS003-GIS/MWS003-GIS.github.io/main/IWWRMP/Data/EXD/200_photo/MWS_012/hg1.jpg" }, "geometry": { "type": "Point", "coordinates": [ 80.75897, 7.16968 ] } },
{ "type": "Feature", "properties": { "No": 7, "Tank name": "Narankandura Mahapitiya Wewa", "Ownership": "DAD", "N": 7.17047, "E": 80.75355, "Remarks": "Construct a new tank", "photopath": "https://raw.githubusercontent.com/MWS003-GIS/MWS003-GIS.github.io/main/IWWRMP/Data/EXD/200_photo/MWS_012/R10.jpg" }, "geometry": { "type": "Point", "coordinates": [ 80.75355, 7.17047 ] } },
{ "type": "Feature", "properties": { "No": 8, "Tank name": "Narankandura Wewa", "Ownership": "DAD", "N": 7.17126, "E": 80.75017, "Remarks": "Rehabilitation of the tank", "photopath": "https://raw.githubusercontent.com/MWS003-GIS/MWS003-GIS.github.io/main/IWWRMP/Data/EXD/200_photo/MWS_012/R12.jpg" }, "geometry": { "type": "Point", "coordinates": [ 80.75017, 7.17126 ] } },
{ "type": "Feature", "properties": { "No": 9, "Tank name": "Kingsway Watta Wewa", "Ownership": "DAD", "N": 7.17589, "E": 80.75381, "Remarks": "Rehabilitation of the tank", "photopath": "https://raw.githubusercontent.com/MWS003-GIS/MWS003-GIS.github.io/main/IWWRMP/Data/EXD/200_photo/MWS_012/R1.jpg" }, "geometry": { "type": "Point", "coordinates": [ 80.75381, 7.17589 ] } },
{ "type": "Feature", "properties": { "No": 10, "Tank name": "Rikillagaskada Wewa", "Ownership": "DAD", "N": 7.14371, "E": 80.78445, "Remarks": "Rehabilitation of the tank", "photopath": "https://raw.githubusercontent.com/MWS003-GIS/MWS003-GIS.github.io/main/IWWRMP/Data/EXD/200_photo/MWS_012/rg11.jpg" }, "geometry": { "type": "Point", "coordinates": [ 80.78445, 7.14371 ] } }
]
}
