{
"type": "FeatureCollection",
"name": "MT",
"crs": { "type": "name", "properties": { "name": "urn:ogc:def:crs:OGC:1.3:CRS84" } },
"features": [
{ "type": "Feature", "properties": { "No": 1, "Tank name": "Madiththa Golla tank", "Ownership": "Tea Estate", "Location N": 7.116675, "Location E": 80.822365, "Remarks": "Construct tank bund, new HW sluice and CO spill", "photopath": "https://raw.githubusercontent.com/MWS003-GIS/MWS003-GIS.github.io/main/IWWRMP/Data/EXD/200_photo/MWS_028/Madiththagolla Wewa (2).jpg" }, "geometry": { "type": "Point", "coordinates": [ 80.822365, 7.116675 ] } },
{ "type": "Feature", "properties": { "No": 2, "Tank name": "Kithulgolla tank", "Ownership": "Tea Estate", "Location N": 7.111909, "Location E": 80.82354, "Remarks": "Construct tank bund, sluice and a CO spill", "photopath": "https://raw.githubusercontent.com/MWS003-GIS/MWS003-GIS.github.io/main/IWWRMP/Data/EXD/200_photo/MWS_028/Kithulgolla Wawa.jpg" }, "geometry": { "type": "Point", "coordinates": [ 80.82354, 7.111909 ] } },
{ "type": "Feature", "properties": { "No": 3, "Tank name": "Maha Wewa", "Ownership": "DAD", "Location N": 7.09554, "Location E": 80.82698, "Remarks": "No need to develop the tank.", "photopath": "https://raw.githubusercontent.com/MWS003-GIS/MWS003-GIS.github.io/main/IWWRMP/Data/EXD/200_photo/MWS_028/Mahawewa.jpg" }, "geometry": { "type": "Point", "coordinates": [ 80.82698, 7.09554 ] } },
{ "type": "Feature", "properties": { "No": 4, "Tank name": "Rukahthtana Madiththa", "Ownership": "DAD", "Location N": 7.113408, "Location E": 80.833578, "Remarks": "Construct tank bund, sluice and CO spill", "photopath": "https://raw.githubusercontent.com/MWS003-GIS/MWS003-GIS.github.io/main/IWWRMP/Data/EXD/200_photo/MWS_028/Rukatthana Madittha Lake.JPG" }, "geometry": { "type": "Point", "coordinates": [ 80.833578, 7.113408 ] } },
{ "type": "Feature", "properties": { "No": 5, "Tank name": "Pambe Ulpotha tank", "Ownership": "DAD", "Location N": 7.117521, "Location E": 80.832279, "Remarks": "Rehabilitate the tank bund, desilt, sluice", "photopath": "https://raw.githubusercontent.com/MWS003-GIS/MWS003-GIS.github.io/main/IWWRMP/Data/EXD/200_photo/MWS_028/Pambe Ulpatha Wewa.JPG" }, "geometry": { "type": "Point", "coordinates": [ 80.832279, 7.117521 ] } },
{ "type": "Feature", "properties": { "No": 6, "Tank name": "Bootewa tank", "Ownership": "DAD", "Location N": 7.108899, "Location E": 80.832931, "Remarks": "Desilt, Construct HW sluice", "photopath": "https://raw.githubusercontent.com/MWS003-GIS/MWS003-GIS.github.io/main/IWWRMP/Data/EXD/200_photo/MWS_028/Bootawa  Lake.JPG" }, "geometry": { "type": "Point", "coordinates": [ 80.832931, 7.108899 ] } }
]
}
