{
"type": "FeatureCollection",
"name": "MT",
"crs": { "type": "name", "properties": { "name": "urn:ogc:def:crs:OGC:1.3:CRS84" } },
"features": [
{ "type": "Feature", "properties": { "Tank name": "Alakola Wewa", "Custodians": "DAD", "Location N": 7.072961, "Location E": 80.814154, "Remarks": "Rehabilitation of the tank is necessary", "photopath": "https://raw.githubusercontent.com/MWS003-GIS/MWS003-GIS.github.io/main/IWWRMP/Data/EXD/200_photo/MWS_025/Alakolawewa Tank.JPG" }, "geometry": { "type": "Point", "coordinates": [ 80.814154, 7.072961 ] } },
{ "type": "Feature", "properties": { "Tank name": "Badulla Wewa", "Custodians": "DAD", "Location N": 7.091817, "Location E": 80.809725, "Remarks": "Repairs to spill and desilting are necessary", "photopath": "https://raw.githubusercontent.com/MWS003-GIS/MWS003-GIS.github.io/main/IWWRMP/Data/EXD/200_photo/MWS_025/Badulla Pokuna Lake.jpg" }, "geometry": { "type": "Point", "coordinates": [ 80.809725, 7.091817 ] } },
{ "type": "Feature", "properties": { "Tank name": "Kumbukgahamula Wewa", "Custodians": "DAD", "Location N": 7.094654, "Location E": 80.818139, "Remarks": "This tan has been rehabilitated in 2023", "photopath": "https://raw.githubusercontent.com/MWS003-GIS/MWS003-GIS.github.io/main/IWWRMP/Data/EXD/200_photo/MWS_025/Kumbukgahamula Tank.JPG" }, "geometry": { "type": "Point", "coordinates": [ 80.818139, 7.094654 ] } },
{ "type": "Feature", "properties": { "Tank name": "Metihakka Wea", "Custodians": "DAD", "Location N": 7.09525, "Location E": 80.818261, "Remarks": "Sluice and spill have to be constructed", "photopath": "https://raw.githubusercontent.com/MWS003-GIS/MWS003-GIS.github.io/main/IWWRMP/Data/EXD/200_photo/MWS_025/Metihakke Pond.JPG" }, "geometry": { "type": "Point", "coordinates": [ 80.818261, 7.09525 ] } },
{ "type": "Feature", "properties": { "Tank name": "Kadiga Madiththawa Wewa", "Custodians": "DAD", "Location N": 7.11205, "Location E": 80.81016, "Remarks": "Desilting and reconstruction of sluice.", "photopath": "https://raw.githubusercontent.com/MWS003-GIS/MWS003-GIS.github.io/main/IWWRMP/Data/EXD/200_photo/MWS_025/Kadiga Madiththa Wewa.jpg" }, "geometry": { "type": "Point", "coordinates": [ 80.81016, 7.11205 ] } }
]
}
