{
"type": "FeatureCollection",
"name": "Table 6_3",
"crs": { "type": "name", "properties": { "name": "urn:ogc:def:crs:OGC:1.3:CRS84" } },
"features": [
{ "type": "Feature", "properties": { "Tank name": "Alakola Wewa", "Custodians": "DAD", "N": 7.072961, "E": 80.814154, "Remarks": "Rehabilitation of the tank is necessary" }, "geometry": { "type": "Point", "coordinates": [ 80.814154, 7.072961 ] } },
{ "type": "Feature", "properties": { "Tank name": "Badulla Wewa", "Custodians": "DAD", "N": 7.091817, "E": 80.809725, "Remarks": "Repairs to spill and desilting are necessary" }, "geometry": { "type": "Point", "coordinates": [ 80.809725, 7.091817 ] } },
{ "type": "Feature", "properties": { "Tank name": "Kumbukgahamula Wewa", "Custodians": "DAD", "N": 7.094654, "E": 80.818139, "Remarks": "This tan has been rehabilitated in 2023" }, "geometry": { "type": "Point", "coordinates": [ 80.818139, 7.094654 ] } },
{ "type": "Feature", "properties": { "Tank name": "Metihakka Wea", "Custodians": "DAD", "N": 7.09525, "E": 80.818261, "Remarks": "Sluice and spill have to be constructed" }, "geometry": { "type": "Point", "coordinates": [ 80.818261, 7.09525 ] } },
{ "type": "Feature", "properties": { "Tank name": "Kadiga Madiththawa Wewa", "Custodians": "DAD", "N": 7.11205, "E": 80.81016, "Remarks": "Desilting and reconstruction of sluice." }, "geometry": { "type": "Point", "coordinates": [ 80.81016, 7.11205 ] } }
]
}
